[
  {
    "id": "tali",
    "name": "Helsingin Golfklubi (Tali)",
    "city": "Helsinki",
    "country": "Finland",
    "lat": 60.2287,
    "lon": 24.8267
  },
  {
    "id": "vuosaari",
    "name": "Vuosaaren Golf",
    "city": "Helsinki",
    "country": "Finland",
    "lat": 60.2078,
    "lon": 25.1479
  },
  {
    "id": "espoon-golfseura",
    "name": "Espoon Golfseura",
    "city": "Espoo",
    "country": "Finland",
    "lat": 60.17,
    "lon": 24.6885
  },
  {
    "id": "master-golf",
    "name": "Master Golf Club",
    "city": "Espoo",
    "country": "Finland",
    "lat": 60.1972,
    "lon": 24.609
  },
  {
    "id": "sarfvik",
    "name": "Sarfvik Golf & Country Club",
    "city": "Kirkkonummi",
    "country": "Finland",
    "lat": 60.1339,
    "lon": 24.4453
  },
  {
    "id": "peuramaa-golf",
    "name": "Peuramaa Golf",
    "city": "Kirkkonummi",
    "country": "Finland",
    "lat": 60.1011,
    "lon": 24.4596
  },
  {
    "id": "vantaankoski",
    "name": "Vantaankosken Golf",
    "city": "Vantaa",
    "country": "Finland",
    "lat": 60.3345,
    "lon": 24.839
  },
  {
    "id": "golf-talma",
    "name": "Golf Talma",
    "city": "Sipoo",
    "country": "Finland",
    "lat": 60.3546,
    "lon": 25.241
  },
  {
    "id": "pickala",
    "name": "Pickala Golf",
    "city": "Siuntio",
    "country": "Finland",
    "lat": 60.0967,
    "lon": 24.2233
  },
  {
    "id": "nevas-golf",
    "name": "Nevas Golf",
    "city": "Inkoo",
    "country": "Finland",
    "lat": 60.0333,
    "lon": 24.0333
  },
  {
    "id": "hanko-golf",
    "name": "Hanko Golf",
    "city": "Hanko",
    "country": "Finland",
    "lat": 59.8231,
    "lon": 22.9575
  },
  {
    "id": "nordcenter",
    "name": "Nordcenter Golf & Country Club",
    "city": "Nurmijärvi",
    "country": "Finland",
    "lat": 60.4629,
    "lon": 24.79
  },
  {
    "id": "kytaja",
    "name": "Kytäjä Golf",
    "city": "Hyvinkää",
    "country": "Finland",
    "lat": 60.6892,
    "lon": 24.6172
  },
  {
    "id": "porvoon-golfkerho",
    "name": "Porvoon Golfkerho",
    "city": "Porvoo",
    "country": "Finland",
    "lat": 60.4064,
    "lon": 25.6656
  },
  {
    "id": "sea-golf-ronnas",
    "name": "Sea Golf Rönnäs",
    "city": "Loviisa",
    "country": "Finland",
    "lat": 60.4487,
    "lon": 26.1721
  },
  {
    "id": "aura-golf",
    "name": "Aura Golf",
    "city": "Turku",
    "country": "Finland",
    "lat": 60.4518,
    "lon": 22.2666
  },
  {
    "id": "ruissalo-golf",
    "name": "Ruissalo Golf",
    "city": "Turku",
    "country": "Finland",
    "lat": 60.4372,
    "lon": 22.1494
  },
  {
    "id": "salo-golf",
    "name": "Salo Golf",
    "city": "Salo",
    "country": "Finland",
    "lat": 60.3833,
    "lon": 23.1333
  },
  {
    "id": "aurinko-golf",
    "name": "Aurinko Golf",
    "city": "Naantali",
    "country": "Finland",
    "lat": 60.4994,
    "lon": 22.0678
  },
  {
    "id": "tammer-golf",
    "name": "Tammer Golf",
    "city": "Tampere",
    "country": "Finland",
    "lat": 61.459,
    "lon": 23.83
  },
  {
    "id": "tampereen-golfseura",
    "name": "Tampereen Golfseura (Kalkku)",
    "city": "Tampere",
    "country": "Finland",
    "lat": 61.4978,
    "lon": 23.651
  },
  {
    "id": "katinala-golf",
    "name": "Katinala Golf",
    "city": "Kangasala",
    "country": "Finland",
    "lat": 61.4569,
    "lon": 24.0759
  },
  {
    "id": "linna-golf",
    "name": "Linna Golf",
    "city": "Hämeenlinna",
    "country": "Finland",
    "lat": 60.9796,
    "lon": 24.5596
  },
  {
    "id": "aulanko-golf-eversti",
    "name": "Aulanko Golf (Eversti)",
    "city": "Hämeenlinna",
    "country": "Finland",
    "lat": 61.035,
    "lon": 24.4605
  },
  {
    "id": "aulanko-golf-hugo",
    "name": "Aulanko Golf (Hugo)",
    "city": "Hämeenlinna",
    "country": "Finland",
    "lat": 61.0261,
    "lon": 24.4386
  },
  {
    "id": "tawast-golf",
    "name": "Tawast Golf",
    "city": "Hämeenlinna",
    "country": "Finland",
    "lat": 60.9987,
    "lon": 24.5257
  },
  {
    "id": "lahden-golf",
    "name": "Lahden Golf",
    "city": "Lahti",
    "country": "Finland",
    "lat": 60.9827,
    "lon": 25.6612
  },
  {
    "id": "messila-golf",
    "name": "Messilä Golf",
    "city": "Hollola",
    "country": "Finland",
    "lat": 61.0968,
    "lon": 25.468
  },
  {
    "id": "vierumaki-golf",
    "name": "Vierumäki Golf",
    "city": "Heinola",
    "country": "Finland",
    "lat": 61.0587,
    "lon": 25.5809
  },
  {
    "id": "vuoksen-golf",
    "name": "Imatran Golf",
    "city": "Imatra",
    "country": "Finland",
    "lat": 61.2269,
    "lon": 28.8563
  },
  {
    "id": "etela-saimaa-golf",
    "name": "Etelä-Saimaa Golf (Viipurin Golf)",
    "city": "Lappeenranta",
    "country": "Finland",
    "lat": 61.1049,
    "lon": 28.2575
  },
  {
    "id": "kahilanniemi-golf",
    "name": "Kahilanniemi (Viipurin Golf)",
    "city": "Lappeenranta",
    "country": "Finland",
    "lat": 61.0641,
    "lon": 28.2132
  },
  {
    "id": "tarinagolf",
    "name": "Tarinagolf",
    "city": "Siilinjärvi",
    "country": "Finland",
    "lat": 63.0606,
    "lon": 27.6535
  },
  {
    "id": "tahko-golf",
    "name": "Tahko Golf (Old Course)",
    "city": "Tahkovuori",
    "country": "Finland",
    "lat": 63.2985,
    "lon": 28.0464
  },
  {
    "id": "tahko-golf-lake-forest",
    "name": "Tahko Golf (Lake & Forest)",
    "city": "Tahkovuori",
    "country": "Finland",
    "lat": 63.2454,
    "lon": 28.0487
  },
  {
    "id": "eerikkala-golf",
    "name": "Eerikkala Golf",
    "city": "Tervo",
    "country": "Finland",
    "lat": 62.9454,
    "lon": 26.76
  },
  {
    "id": "konnus-golf",
    "name": "Konnus-Golf",
    "city": "Leppävirta",
    "country": "Finland",
    "lat": 62.53,
    "lon": 27.79
  },
  {
    "id": "kartanogolf",
    "name": "Kartanogolf",
    "city": "Joroinen",
    "country": "Finland",
    "lat": 62.1772,
    "lon": 27.8825
  },
  {
    "id": "yla-savon-golf",
    "name": "Ylä-Savon Golfseura",
    "city": "Iisalmi",
    "country": "Finland",
    "lat": 63.5341,
    "lon": 27.2759
  },
  {
    "id": "karelia-golf",
    "name": "Karelia Golf ",
    "city": "Kontiolahti",
    "country": "Finland",
    "lat": 62.7478,
    "lon": 29.8214
  },
  {
    "id": "outokummun-golf",
    "name": "Outokummun Golf",
    "city": "Outokumpu",
    "country": "Finland",
    "lat": 62.7146,
    "lon": 28.9863
  },
  {
    "id": "pielis-golf",
    "name": "Pielis-Golf",
    "city": "Nurmes",
    "country": "Finland",
    "lat": 63.533,
    "lon": 29.1979
  },
  {
    "id": "katinkulta-golf",
    "name": "Katinkulta Golf",
    "city": "Sotkamo",
    "country": "Finland",
    "lat": 64.1482,
    "lon": 28.2351
  },
  {
    "id": "kajaanin-golf",
    "name": "Kajaanin Golf",
    "city": "Kajaani",
    "country": "Finland",
    "lat": 64.2089,
    "lon": 27.6656
  },
  {
    "id": "kerigolf",
    "name": "Kerigolf",
    "city": "Kerimäki",
    "country": "Finland",
    "lat": 61.8845,
    "lon": 29.1613
  },
  {
    "id": "mikkelin-golf",
    "name": "Mikkelin Golf",
    "city": "Mikkeli",
    "country": "Finland",
    "lat": 61.6887,
    "lon": 27.2198
  },
  {
    "id": "golf-porrassalmi",
    "name": "Annilan Golfkeskus",
    "city": "Mikkeli",
    "country": "Finland",
    "lat": 61.6496,
    "lon": 27.2813
  },
  {
    "id": "puula-golf",
    "name": "PuulaGolf",
    "city": "Kangasniemi",
    "country": "Finland",
    "lat": 62.0033,
    "lon": 26.6862
  },
  {
    "id": "jyvas-golf",
    "name": "Jyväs-Golf (Sippulanniemi)",
    "city": "Jyväskylä",
    "country": "Finland",
    "lat": 62.2125,
    "lon": 25.729
  },
  {
    "id": "muurame-golf",
    "name": "Muurame Golf",
    "city": "Muurame",
    "country": "Finland",
    "lat": 62.1315,
    "lon": 25.6808
  },
  {
    "id": "laukaan-peurunkagolf",
    "name": "Laukaan Peurunkagolf",
    "city": "Laukaa",
    "country": "Finland",
    "lat": 62.4339,
    "lon": 25.869
  },
  {
    "id": "revontuli-golf",
    "name": "Revontuli Golf",
    "city": "Hankasalmi",
    "country": "Finland",
    "lat": 62.329,
    "lon": 26.5199
  },
  {
    "id": "himos-golf",
    "name": "Himos Golf",
    "city": "Jämsä",
    "country": "Finland",
    "lat": 61.8831,
    "lon": 25.2903
  },
  {
    "id": "botnia-golf",
    "name": "Botnia Golf",
    "city": "Seinäjoki",
    "country": "Finland",
    "lat": 62.7873,
    "lon": 22.8412
  },
  {
    "id": "vaasan-golfseura",
    "name": "Vaasan Golfseura",
    "city": "Vaasa",
    "country": "Finland",
    "lat": 63.0951,
    "lon": 21.6165
  },
  {
    "id": "kokkolan-golfkerho",
    "name": "Kokkolan Golfkerho",
    "city": "Kokkola",
    "country": "Finland",
    "lat": 63.8384,
    "lon": 23.1307
  },
  {
    "id": "kalajoki-golf",
    "name": "Kalajoki Golf",
    "city": "Kalajoki",
    "country": "Finland",
    "lat": 64.2282,
    "lon": 23.7889
  },
  {
    "id": "oulun-golfkerho",
    "name": "Oulun Golfkerho",
    "city": "Oulu",
    "country": "Finland",
    "lat": 65.0121,
    "lon": 25.4651
  },
  {
    "id": "rovaniemen-golfkerho",
    "name": "Rovaniemen Golfkerho",
    "city": "Rovaniemi",
    "country": "Finland",
    "lat": 66.5039,
    "lon": 25.7294
  },
  {
    "id": "hartola-golf",
    "name": "Hartola Golf",
    "city": "Hartola",
    "country": "Finland",
    "lat": 61.5764,
    "lon": 26.04
  },
  {
    "id": "paloheina-golf",
    "name": "Paloheinä Golf",
    "city": "Helsinki",
    "country": "Finland",
    "lat": 60.2589,
    "lon": 24.9372
  },
  {
    "id": "tapiola-golf",
    "name": "Tapiola Golf",
    "city": "Espoo",
    "country": "Finland",
    "lat": 60.1972,
    "lon": 24.7823
  },
  {
    "id": "gumbole-golf",
    "name": "Gumböle Golf",
    "city": "Espoo",
    "country": "Finland",
    "lat": 60.224,
    "lon": 24.6113
  },
  {
    "id": "espoo-ringside-golf",
    "name": "Espoo Ringside Golf",
    "city": "Espoo",
    "country": "Finland",
    "lat": 60.2768,
    "lon": 24.7442
  },
  {
    "id": "suur-helsingin-golf-luukki",
    "name": "Suur-Helsingin Golf (Luukki)",
    "city": "Espoo",
    "country": "Finland",
    "lat": 60.3171,
    "lon": 24.6702
  },
  {
    "id": "hirsala-golf",
    "name": "Hirsala Golf",
    "city": "Kirkkonummi",
    "country": "Finland",
    "lat": 60.1184,
    "lon": 24.5234
  },
  {
    "id": "kurk-golf",
    "name": "Kurk Golf",
    "city": "Kirkkonummi",
    "country": "Finland",
    "lat": 60.181,
    "lon": 24.3889
  },
  {
    "id": "keimola-golf",
    "name": "Keimola Golf",
    "city": "Vantaa",
    "country": "Finland",
    "lat": 60.3208,
    "lon": 24.8056
  },
  {
    "id": "hiekkaharju-golf",
    "name": "Hiekkaharju Golf",
    "city": "Vantaa",
    "country": "Finland",
    "lat": 60.3058,
    "lon": 25.0536
  },
  {
    "id": "st-laurence-golf",
    "name": "St. Laurence Golf",
    "city": "Lohja",
    "country": "Finland",
    "lat": 60.2297,
    "lon": 24.0607
  },
  {
    "id": "hill-side-golf",
    "name": "Hill Side Golf & Country Club",
    "city": "Vihti",
    "country": "Finland",
    "lat": 60.3395,
    "lon": 24.2831
  },
  {
    "id": "vihti-golf",
    "name": "Vihti Golf",
    "city": "Vihti",
    "country": "Finland",
    "lat": 60.3663,
    "lon": 24.3727
  },
  {
    "id": "nurmijarvi-golf",
    "name": "Nurmijärvi Golf",
    "city": "Nurmijärvi",
    "country": "Finland",
    "lat": 60.4357,
    "lon": 24.6468
  },
  {
    "id": "tuusulan-golfklubi",
    "name": "Tuusulan Golfklubi",
    "city": "Tuusula",
    "country": "Finland",
    "lat": 60.415,
    "lon": 25.0492
  },
  {
    "id": "kotojarvi-golf",
    "name": "Kotojärvi Golf",
    "city": "Pornainen",
    "country": "Finland",
    "lat": 60.4499,
    "lon": 25.3848
  },
  {
    "id": "kullo-golf",
    "name": "Kullo Golf Club",
    "city": "Porvoo",
    "country": "Finland",
    "lat": 60.3324,
    "lon": 25.4997
  },
  {
    "id": "virvik-golf",
    "name": "Virvik Golf",
    "city": "Porvoo",
    "country": "Finland",
    "lat": 60.3505,
    "lon": 25.9023
  },
  {
    "id": "eke-golf",
    "name": "Eke Golf",
    "city": "Raasepori",
    "country": "Finland",
    "lat": 59.9961,
    "lon": 23.4681
  },
  {
    "id": "ruukkigolf",
    "name": "Ruukkigolf",
    "city": "Raasepori",
    "country": "Finland",
    "lat": 60.1108,
    "lon": 23.4725
  },
  {
    "id": "golf-pirkkala",
    "name": "Golf Pirkkala",
    "city": "Pirkkala",
    "country": "Finland",
    "lat": 61.4428,
    "lon": 23.6335
  },
  {
    "id": "nokia-river-golf",
    "name": "Nokia River Golf",
    "city": "Nokia",
    "country": "Finland",
    "lat": 61.4475,
    "lon": 23.4116
  },
  {
    "id": "hiisi-golf",
    "name": "Hiisi-Golf",
    "city": "Lempäälä",
    "country": "Finland",
    "lat": 61.3033,
    "lon": 23.7736
  },
  {
    "id": "pirkanmaan-golf",
    "name": "Pirkanmaan Golf",
    "city": "Tampere",
    "country": "Finland",
    "lat": 61.4722,
    "lon": 23.8294
  },
  {
    "id": "kakigolf",
    "name": "KäkiGolf",
    "city": "Pälkäne",
    "country": "Finland",
    "lat": 61.354,
    "lon": 24.636
  },
  {
    "id": "lakeside-golf-vammala",
    "name": "Lakeside Golf Vammala",
    "city": "Sastamala",
    "country": "Finland",
    "lat": 61.4223,
    "lon": 23.0018
  },
  {
    "id": "poltinkoski-golf",
    "name": "Poltinkoski Golf",
    "city": "Ikaalinen",
    "country": "Finland",
    "lat": 61.8,
    "lon": 23.02
  },
  {
    "id": "golf-virrat",
    "name": "Golf-Virrat",
    "city": "Virrat",
    "country": "Finland",
    "lat": 62.2,
    "lon": 23.75
  },
  {
    "id": "hattula-golf",
    "name": "Hattula Golf",
    "city": "Hattula",
    "country": "Finland",
    "lat": 61.054,
    "lon": 24.364
  },
  {
    "id": "lepaa-golf",
    "name": "Lepaa Golf",
    "city": "Hattula",
    "country": "Finland",
    "lat": 61.0827,
    "lon": 24.3414
  },
  {
    "id": "kanavagolf-vaaksy",
    "name": "Kanavagolf Vääksy",
    "city": "Asikkala",
    "country": "Finland",
    "lat": 61.1598,
    "lon": 25.5748
  },
  {
    "id": "anola-golf",
    "name": "Anola Golf Club",
    "city": "Pieksämäki",
    "country": "Finland",
    "lat": 62.3305,
    "lon": 27.0972
  },
  {
    "id": "holiday-club-saimaa",
    "name": "Holiday Club Golf Saimaa",
    "city": "Imatra",
    "country": "Finland",
    "lat": 61.1894,
    "lon": 28.7177
  },
  {
    "id": "iitti-golf",
    "name": "Iitti Golf",
    "city": "Iitti",
    "country": "Finland",
    "lat": 60.9266,
    "lon": 26.3878
  },
  {
    "id": "kaakon-golf",
    "name": "Kaakon Golf",
    "city": "Virolahti",
    "country": "Finland",
    "lat": 60.5502,
    "lon": 27.6749
  },
  {
    "id": "koski-golf",
    "name": "Koski-Golf",
    "city": "Kouvola",
    "country": "Finland",
    "lat": 60.916,
    "lon": 26.651
  },
  {
    "id": "kymen-golf",
    "name": "Kymen Golf",
    "city": "Kotka",
    "country": "Finland",
    "lat": 60.4854,
    "lon": 26.8524
  },
  {
    "id": "lampila-golf",
    "name": "Lampila Golf",
    "city": "Kouvola",
    "country": "Finland",
    "lat": 61.0361,
    "lon": 26.4965
  },
  {
    "id": "rantasalmi-golf",
    "name": "Rantasalmi Golf",
    "city": "Rantasalmi",
    "country": "Finland",
    "lat": 62.0438,
    "lon": 28.4113
  },
  {
    "id": "vola-golf",
    "name": "Vola-Golf",
    "city": "Mäntyharju",
    "country": "Finland",
    "lat": 61.4339,
    "lon": 26.6265
  },
  {
    "id": "spain-la-cala-resort",
    "name": "La Cala Resort",
    "city": "Mijas",
    "country": "Spain",
    "lat": 36.5364,
    "lon": -4.7178
  },
  {
    "id": "spain-mijas-golf",
    "name": "Mijas Golf",
    "city": "Mijas",
    "country": "Spain",
    "lat": 36.5494,
    "lon": -4.6691
  },
  {
    "id": "spain-calanova-golf",
    "name": "Calanova Golf Club",
    "city": "Mijas",
    "country": "Spain",
    "lat": 36.514,
    "lon": -4.7119
  },
  {
    "id": "gogolf-isosaari",
    "name": "GoGolf Isosaari",
    "city": "Helsinki",
    "country": "Finland",
    "lat": 60.1019,
    "lon": 25.0523
  },
  {
    "id": "laukanlampi-golf",
    "name": "Laukanlampi Golf Club",
    "city": "Pieksämäki",
    "country": "Finland",
    "lat": 62.3773,
    "lon": 27.4335
  },
  {
    "id": "jami-snow-golf",
    "name": "Jämi Snow Golf",
    "city": "Jämijärvi",
    "country": "Finland",
    "lat": 61.7792,
    "lon": 22.7166
  },
  {
    "id": "punkalaitumen-golf",
    "name": "Punkalaitumen Golf",
    "city": "Punkalaidun",
    "country": "Finland",
    "lat": 61.1044,
    "lon": 23.0878
  },
  {
    "id": "puumala-golf",
    "name": "Puumala Golf",
    "city": "Puumala",
    "country": "Finland",
    "lat": 61.5958,
    "lon": 28.3445
  },
  {
    "id": "ranuan-golf",
    "name": "Ranuan Golf",
    "city": "Ranua",
    "country": "Finland",
    "lat": 65.9405,
    "lon": 26.5362
  },
  {
    "id": "wenoxa-golf",
    "name": "Wenoxa Golf",
    "city": "Vänoxa",
    "country": "Finland",
    "lat": 59.9753,
    "lon": 22.615
  },
  {
    "id": "laakasalo-golf",
    "name": "Laakasalo Golf",
    "city": "Loppi",
    "country": "Finland",
    "lat": 60.7358,
    "lon": 24.171
  },
  {
    "id": "bokars-golf",
    "name": "Bökars Golf",
    "city": "Porvoo",
    "country": "Finland",
    "lat": 60.298,
    "lon": 25.8879
  },
  {
    "id": "parkkivuoren-golf",
    "name": "Parkkivuoren Golf",
    "city": "Mänttä-Vilppula",
    "country": "Finland",
    "lat": 62.024,
    "lon": 24.5336
  },
  {
    "id": "vantti-golf",
    "name": "Väntti Golf",
    "city": "Mäntyharju",
    "country": "Finland",
    "lat": 61.5266,
    "lon": 26.7934
  },
  {
    "id": "eckero-golf",
    "name": "Eckerö Golf",
    "city": "Eckerö",
    "country": "Finland",
    "lat": 60.2144,
    "lon": 19.6154
  },
  {
    "id": "hirvihaaran-golf",
    "name": "Hirvihaaran Golf",
    "city": "Mäntsälä",
    "country": "Finland",
    "lat": 60.6304,
    "lon": 25.2038
  },
  {
    "id": "hirvensalon-golf",
    "name": "Hirvensalon Golf",
    "city": "Turku",
    "country": "Finland",
    "lat": 60.4177,
    "lon": 22.2191
  },
  {
    "id": "harma-golf",
    "name": "Härmä Golf & Academy",
    "city": "Kauhava",
    "country": "Finland",
    "lat": 63.1379,
    "lon": 22.8288
  },
  {
    "id": "pietarsaaren-golf",
    "name": "Jakobstads Golf – Pietarsaaren Golf",
    "city": "Pietarsaari",
    "country": "Finland",
    "lat": 63.6681,
    "lon": 22.7804
  },
  {
    "id": "jarviseudun-golf",
    "name": "Järviseudun Golf",
    "city": "Lappajärvi",
    "country": "Finland",
    "lat": 63.2518,
    "lon": 23.636
  },
  {
    "id": "kankaisten-golf",
    "name": "Kankaisten Golf",
    "city": "Masku",
    "country": "Finland",
    "lat": 60.5486,
    "lon": 22.1099
  },
  {
    "id": "kultaranta-golf",
    "name": "Kultaranta Golf",
    "city": "Naantali",
    "country": "Finland",
    "lat": 60.4552,
    "lon": 21.9554
  },
  {
    "id": "kuusamo-golf",
    "name": "Kuusamo Golf",
    "city": "Kuusamo",
    "country": "Finland",
    "lat": 65.9974,
    "lon": 29.1832
  },
  {
    "id": "nakkila-golf",
    "name": "Nakkila Golf",
    "city": "Nakkila",
    "country": "Finland",
    "lat": 61.4102,
    "lon": 22.0601
  },
  {
    "id": "oulujokilaakson-golf",
    "name": "Oulujokilaakson Golf",
    "city": "Muhos",
    "country": "Finland",
    "lat": 64.8523,
    "lon": 26.0191
  },
  {
    "id": "paltamo-golf",
    "name": "Paltamo Golf",
    "city": "Paltamo",
    "country": "Finland",
    "lat": 64.396,
    "lon": 27.8685
  },
  {
    "id": "porvoo-golf",
    "name": "Porvoo Golf",
    "city": "Porvoo",
    "country": "Finland",
    "lat": 60.4213,
    "lon": 25.6978
  },
  {
    "id": "ruuhikoski-golf",
    "name": "Ruuhikoski Golf",
    "city": "Seinäjoki",
    "country": "Finland",
    "lat": 62.7941,
    "lon": 22.9802
  },
  {
    "id": "santa-claus-golf",
    "name": "Santa Claus Golf",
    "city": "Rovaniemi",
    "country": "Finland",
    "lat": 66.5026,
    "lon": 25.8284
  },
  {
    "id": "st-lake-golf",
    "name": "St. Lake Golf Club",
    "city": "Pyhäjärvi",
    "country": "Finland",
    "lat": 63.6432,
    "lon": 26.0482
  },
  {
    "id": "uudenkaupungin-golfklubi",
    "name": "Uudenkaupungin Golfklubi",
    "city": "Uusikaupunki",
    "country": "Finland",
    "lat": 60.7932,
    "lon": 21.4312
  },
  {
    "id": "virpiniemi-golf",
    "name": "Virpiniemi Golf",
    "city": "Oulu",
    "country": "Finland",
    "lat": 65.1275,
    "lon": 25.2882
  },
  {
    "id": "vora-golf",
    "name": "Vörå Golf – Vöyrin Golf",
    "city": "Vöyri",
    "country": "Finland",
    "lat": 63.1365,
    "lon": 22.2599
  },
  {
    "id": "yyteri-golf",
    "name": "Yyteri Golf",
    "city": "Pori",
    "country": "Finland",
    "lat": 61.5843,
    "lon": 21.5014
  },
  {
    "id": "ahtarin-golf",
    "name": "Ähtärin Golf",
    "city": "Ähtäri",
    "country": "Finland",
    "lat": 62.5303,
    "lon": 24.205
  },
  {
    "id": "rauma-golf",
    "name": "Rauma Golf",
    "city": "Rauma",
    "country": "Finland",
    "lat": 61.1401,
    "lon": 21.5617
  },
  {
    "id": "alands-golfklubb",
    "name": "Ålands Golfklubb",
    "city": "Kastelholm",
    "country": "Finland",
    "lat": 60.2257,
    "lon": 20.0673
  },
  {
    "id": "remson-golf",
    "name": "Remson Golf Club",
    "city": "Pedersöre",
    "country": "Finland",
    "lat": 63.6208,
    "lon": 22.7421
  },
  {
    "id": "raahentienoon-golf",
    "name": "Raahentienoon Golf",
    "city": "Siikajoki",
    "country": "Finland",
    "lat": 64.8155,
    "lon": 24.7665
  },
  {
    "id": "lofkulla-golf",
    "name": "Löfkulla Golf",
    "city": "Espoo",
    "country": "Finland",
    "lat": 60.2145,
    "lon": 24.6581
  },
  {
    "id": "laajasalon-golf",
    "name": "Laajasalon Golf",
    "city": "Helsinki",
    "country": "Finland",
    "lat": 60.1699,
    "lon": 25.0635
  },
  {
    "id": "wiurila-golf",
    "name": "Wiurila Golf & Country Club",
    "city": "Salo",
    "country": "Finland",
    "lat": 60.3772,
    "lon": 23.06
  },
  {
    "id": "nivalan-seudun-golf",
    "name": "Nivalan Seudun Golf",
    "city": "Nivala",
    "country": "Finland",
    "lat": 63.9056,
    "lon": 25.0226
  },
  {
    "id": "green-zone-golf",
    "name": "Green Zone Golf",
    "city": "Tornio",
    "country": "Finland",
    "lat": 65.8578,
    "lon": 24.1338
  },
  {
    "id": "kemin-golf",
    "name": "Kemin Golf",
    "city": "Kemi",
    "country": "Finland",
    "lat": 65.7511,
    "lon": 24.6014
  },
  {
    "id": "loimijoki-golf",
    "name": "Loimijoki Golf",
    "city": "Ypäjä",
    "country": "Finland",
    "lat": 60.819,
    "lon": 23.2324
  },
  {
    "id": "alastaro-golf",
    "name": "Alastaro Golf",
    "city": "Alastaro",
    "country": "Finland",
    "lat": 60.9847,
    "lon": 22.6418
  },
  {
    "id": "archipelagia-golf",
    "name": "Archipelagia Golf Club",
    "city": "Parainen",
    "country": "Finland",
    "lat": 60.316,
    "lon": 22.2728
  },
  {
    "id": "levi-golf",
    "name": "Levi Golf",
    "city": "Kittilä",
    "country": "Finland",
    "lat": 67.7992,
    "lon": 24.8741
  },
  {
    "id": "kuortane-golf",
    "name": "Kuortane Golf",
    "city": "Kuortane",
    "country": "Finland",
    "lat": 62.7608,
    "lon": 23.5175
  },
  {
    "id": "harjattula-golf",
    "name": "Harjattula Golf",
    "city": "Turku",
    "country": "Finland",
    "lat": 60.3669,
    "lon": 22.285
  },
  {
    "id": "porin-golfkerho",
    "name": "Porin Golfkerho",
    "city": "Pori",
    "country": "Finland",
    "lat": 61.5118,
    "lon": 21.7622
  },
  {
    "id": "hyvigolf",
    "name": "Hyvigolf",
    "city": "Hyvinkää",
    "country": "Finland",
    "lat": 60.6577,
    "lon": 24.8162
  },
  {
    "id": "rock-golf",
    "name": "Rock Golf",
    "city": "Siuntio",
    "country": "Finland",
    "lat": 60.1118,
    "lon": 24.2491
  },
  {
    "id": "meri-teijo-golf",
    "name": "Meri-Teijo Golf",
    "city": "Salo",
    "country": "Finland",
    "lat": 60.2384,
    "lon": 22.9365
  },
  {
    "id": "estonia-estonian-gcc",
    "name": "Estonian Golf & Country Club",
    "city": "Manniva",
    "country": "Estonia",
    "lat": 59.4664,
    "lon": 25.1388
  },
  {
    "id": "estonia-niitvalja-golf",
    "name": "Niitvälja Golf",
    "city": "Niitvälja",
    "country": "Estonia",
    "lat": 59.318,
    "lon": 24.3171
  },
  {
    "id": "estonia-parnu-bay-golf-links",
    "name": "Pärnu Bay Golf Links",
    "city": "Reiu",
    "country": "Estonia",
    "lat": 58.3271,
    "lon": 24.5866
  },
  {
    "id": "estonia-rae-golf",
    "name": "Rae Golf",
    "city": "Suuresta",
    "country": "Estonia",
    "lat": 59.2562,
    "lon": 24.9751
  },
  {
    "id": "estonia-saaremaa-gcc",
    "name": "Saaremaa Golf & Country Club",
    "city": "Kuressaare",
    "country": "Estonia",
    "lat": 58.2546,
    "lon": 22.4951
  },
  {
    "id": "estonia-white-beach-golf",
    "name": "White Beach Golf",
    "city": "Valgeranna",
    "country": "Estonia",
    "lat": 58.3878,
    "lon": 24.3717
  },
  {
    "id": "estonia-otepaa-golf-center",
    "name": "Otepää Golf Center",
    "city": "Mäha",
    "country": "Estonia",
    "lat": 58.0498,
    "lon": 26.4111
  },
  {
    "id": "estonia-ojasaare-golf",
    "name": "Ojasaare Golf",
    "city": "Aarla",
    "country": "Estonia",
    "lat": 59.2974,
    "lon": 26.5401
  },
  {
    "id": "estonia-elamusgolfikeskus",
    "name": "Elamusgolfikeskus (Indoor)",
    "city": "Tallinn",
    "country": "Estonia",
    "lat": 59.4339,
    "lon": 24.7448
  },
  {
    "id": "spain-aloha-golf",
    "name": "Aloha Golf Club",
    "city": "Marbella",
    "country": "Spain",
    "lat": 36.5097,
    "lon": -4.9455
  },
  {
    "id": "spain-las-brisas-golf",
    "name": "Real Club de Golf Las Brisas",
    "city": "Marbella",
    "country": "Spain",
    "lat": 36.5126,
    "lon": -4.9567
  },
  {
    "id": "spain-los-naranjos-golf",
    "name": "Los Naranjos Golf Club",
    "city": "Marbella",
    "country": "Spain",
    "lat": 36.5113,
    "lon": -4.9691
  },
  {
    "id": "spain-la-quinta-golf",
    "name": "La Quinta Golf & Country Club",
    "city": "Marbella",
    "country": "Spain",
    "lat": 36.5052,
    "lon": -4.9922
  },
  {
    "id": "spain-magna-marbella-golf",
    "name": "Magna Marbella Golf",
    "city": "Marbella",
    "country": "Spain",
    "lat": 36.5039,
    "lon": -4.9614
  },
  {
    "id": "spain-rio-real-golf",
    "name": "Río Real Golf Marbella",
    "city": "Marbella",
    "country": "Spain",
    "lat": 36.5173,
    "lon": -4.8493
  },
  {
    "id": "spain-santa-clara-golf",
    "name": "Santa Clara Golf Marbella",
    "city": "Marbella",
    "country": "Spain",
    "lat": 36.5117,
    "lon": -4.8322
  },
  {
    "id": "spain-marbella-golf-country-club",
    "name": "Marbella Golf Country Club",
    "city": "Marbella",
    "country": "Spain",
    "lat": 36.5135,
    "lon": -4.8219
  },
  {
    "id": "spain-santa-maria-golf",
    "name": "Santa María Golf & Country Club",
    "city": "Marbella",
    "country": "Spain",
    "lat": 36.4975,
    "lon": -4.7794
  },
  {
    "id": "spain-greenlife-golf",
    "name": "Greenlife Golf Club Marbella",
    "city": "Marbella",
    "country": "Spain",
    "lat": 36.4988,
    "lon": -4.7675
  },
  {
    "id": "spain-cabopino-golf",
    "name": "Cabopino Golf Marbella",
    "city": "Marbella",
    "country": "Spain",
    "lat": 36.4913,
    "lon": -4.7431
  },
  {
    "id": "spain-guadalmina-golf",
    "name": "Real Club de Golf Guadalmina",
    "city": "Marbella",
    "country": "Spain",
    "lat": 36.4716,
    "lon": -5.0004
  },
  {
    "id": "spain-marbella-club-golf",
    "name": "Marbella Club Golf Resort",
    "city": "Benahavís",
    "country": "Spain",
    "lat": 36.4984,
    "lon": -5.0401
  },
  {
    "id": "spain-los-arqueros-golf",
    "name": "Los Arqueros Golf & Country Club",
    "city": "Benahavís",
    "country": "Spain",
    "lat": 36.5161,
    "lon": -5.0116
  },
  {
    "id": "spain-villa-padierna-golf",
    "name": "Villa Padierna Golf Club",
    "city": "Benahavís",
    "country": "Spain",
    "lat": 36.4755,
    "lon": -5.0442
  },
  {
    "id": "spain-el-higueral-golf",
    "name": "El Higueral Golf",
    "city": "Benahavís",
    "country": "Spain",
    "lat": 36.5008,
    "lon": -5.0183
  },
  {
    "id": "spain-la-zagaleta-golf",
    "name": "La Zagaleta Country Club",
    "city": "Benahavís",
    "country": "Spain",
    "lat": 36.5367,
    "lon": -5.0117
  },
  {
    "id": "spain-monte-mayor-golf",
    "name": "Monte Mayor Golf & Country Club",
    "city": "Benahavís",
    "country": "Spain",
    "lat": 36.5186,
    "lon": -5.0931
  },
  {
    "id": "spain-atalaya-golf",
    "name": "Atalaya Golf & Country Club",
    "city": "Estepona",
    "country": "Spain",
    "lat": 36.4836,
    "lon": -5.0194
  },
  {
    "id": "spain-el-paraiso-golf",
    "name": "El Paraíso Golf Club",
    "city": "Estepona",
    "country": "Spain",
    "lat": 36.4792,
    "lon": -5.0291
  },
  {
    "id": "spain-guadalhorce-golf",
    "name": "Guadalhorce Club de Golf",
    "city": "Málaga",
    "country": "Spain",
    "lat": 36.6972,
    "lon": -4.5161
  },
  {
    "id": "spain-parador-malaga-golf",
    "name": "Parador de Málaga Golf",
    "city": "Málaga",
    "country": "Spain",
    "lat": 36.6508,
    "lon": -4.4842
  },
  {
    "id": "spain-lauro-golf",
    "name": "Lauro Golf",
    "city": "Alhaurín de la Torre",
    "country": "Spain",
    "lat": 36.6575,
    "lon": -4.6075
  },
  {
    "id": "spain-alhaurin-golf",
    "name": "Alhaurín Golf Resort",
    "city": "Alhaurín el Grande",
    "country": "Spain",
    "lat": 36.6214,
    "lon": -4.6908
  },
  {
    "id": "spain-jimenez-golf-academy",
    "name": "Miguel Ángel Jiménez Golf Academy",
    "city": "Torremolinos",
    "country": "Spain",
    "lat": 36.6431,
    "lon": -4.5097
  },
  {
    "id": "spain-torrequebrada-golf",
    "name": "Torrequebrada Golf",
    "city": "Benalmádena",
    "country": "Spain",
    "lat": 36.5961,
    "lon": -4.5447
  },
  {
    "id": "spain-benalmadena-golf",
    "name": "Benalmádena Golf",
    "city": "Benalmádena",
    "country": "Spain",
    "lat": 36.6083,
    "lon": -4.5261
  },
  {
    "id": "spain-bil-bil-golf",
    "name": "Bil Bil Golf",
    "city": "Benalmádena",
    "country": "Spain",
    "lat": 36.6019,
    "lon": -4.5408
  },
  {
    "id": "spain-reserva-higueron-golf",
    "name": "Reserva del Higuerón Pitch & Putt",
    "city": "Fuengirola",
    "country": "Spain",
    "lat": 36.5811,
    "lon": -4.5986
  },
  {
    "id": "spain-fuengirola-adventure-golf",
    "name": "Fuengirola Adventure Golf",
    "city": "Fuengirola",
    "country": "Spain",
    "lat": 36.5394,
    "lon": -4.6308
  },
  {
    "id": "spain-santana-golf",
    "name": "Santana Golf Club",
    "city": "Mijas",
    "country": "Spain",
    "lat": 36.5469,
    "lon": -4.6853
  },
  {
    "id": "spain-chaparral-golf",
    "name": "Chaparral Golf Club",
    "city": "Mijas",
    "country": "Spain",
    "lat": 36.5164,
    "lon": -4.6402
  },
  {
    "id": "spain-miraflores-golf",
    "name": "Miraflores Golf Club",
    "city": "Mijas",
    "country": "Spain",
    "lat": 36.5108,
    "lon": -4.7197
  },
  {
    "id": "spain-la-siesta-golf",
    "name": "Club de Golf La Siesta",
    "city": "Mijas",
    "country": "Spain",
    "lat": 36.4952,
    "lon": -4.7261
  },
  {
    "id": "spain-la-noria-golf",
    "name": "La Noria Golf Resort",
    "city": "Mijas",
    "country": "Spain",
    "lat": 36.5025,
    "lon": -4.6931
  },
  {
    "id": "spain-cerrado-aguila-golf",
    "name": "Cerrado del Águila Golf",
    "city": "Mijas",
    "country": "Spain",
    "lat": 36.5358,
    "lon": -4.6433
  },
  {
    "id": "spain-anoreta-golf",
    "name": "Anoreta Golf",
    "city": "Rincón de la Victoria",
    "country": "Spain",
    "lat": 36.7236,
    "lon": -4.2547
  },
  {
    "id": "spain-finca-cortesin-golf",
    "name": "Finca Cortesín Golf Club",
    "city": "Casares",
    "country": "Spain",
    "lat": 36.3828,
    "lon": -5.2238
  },
  {
    "id": "spain-valderrama-golf",
    "name": "Valderrama Golf Club",
    "city": "Sotogrande",
    "country": "Spain",
    "lat": 36.2944,
    "lon": -5.3217
  },
  {
    "id": "spain-sotogrande-golf",
    "name": "Real Club de Golf Sotogrande",
    "city": "Sotogrande",
    "country": "Spain",
    "lat": 36.2842,
    "lon": -5.3089
  },
  {
    "id": "sweden-a6-golf",
    "name": "A6 Golfklubb",
    "city": "Jönköping",
    "country": "Sweden",
    "lat": 57.7725,
    "lon": 14.2044
  },
  {
    "id": "sweden-abbekas-golf",
    "name": "Abbekås Golfklubb",
    "city": "Skåne",
    "country": "Sweden",
    "lat": 55.4017,
    "lon": 13.5939
  },
  {
    "id": "sweden-albatross-golf",
    "name": "Albatross Golfklubb",
    "city": "Västra Götaland",
    "country": "Sweden",
    "lat": 57.7719,
    "lon": 11.9161
  },
  {
    "id": "sweden-alingsas-golf",
    "name": "Alingsås Golfklubb",
    "city": "Västra Götaland",
    "country": "Sweden",
    "lat": 57.9622,
    "lon": 12.5186
  },
  {
    "id": "sweden-arlandastad-golf",
    "name": "Arlandastad Golf",
    "city": "Stockholm",
    "country": "Sweden",
    "lat": 59.6194,
    "lon": 17.8711
  },
  {
    "id": "sweden-barseback-golf",
    "name": "Barsebäck Golf & Country Club",
    "city": "Skåne",
    "country": "Sweden",
    "lat": 55.7744,
    "lon": 12.9431
  },
  {
    "id": "sweden-billingens-golf",
    "name": "Billingens Golfklubb",
    "city": "Västra Götaland",
    "country": "Sweden",
    "lat": 58.4611,
    "lon": 13.7297
  },
  {
    "id": "sweden-bokskogens-golf",
    "name": "Bokskogens Golfklubb",
    "city": "Skåne",
    "country": "Sweden",
    "lat": 55.5514,
    "lon": 13.2508
  },
  {
    "id": "sweden-boras-golf",
    "name": "Borås Golfklubb",
    "city": "Västra Götaland",
    "country": "Sweden",
    "lat": 57.7128,
    "lon": 12.8711
  },
  {
    "id": "sweden-bredareds-golf",
    "name": "Bredareds Golfklubb",
    "city": "Västra Götaland",
    "country": "Sweden",
    "lat": 57.8114,
    "lon": 12.8942
  },
  {
    "id": "sweden-bro-hof-slott-golf",
    "name": "Bro Hof Slott Golf Club",
    "city": "Stockholm",
    "country": "Sweden",
    "lat": 59.4956,
    "lon": 17.6258
  },
  {
    "id": "sweden-bastad-golf",
    "name": "Båstad Golfklubb",
    "city": "Skåne",
    "country": "Sweden",
    "lat": 56.4172,
    "lon": 12.8197
  },
  {
    "id": "sweden-chalmers-golf",
    "name": "Chalmers Golfklubb",
    "city": "Västra Götaland",
    "country": "Sweden",
    "lat": 57.6339,
    "lon": 12.0628
  },
  {
    "id": "sweden-djursholms-golf",
    "name": "Djursholms Golfklubb",
    "city": "Stockholm",
    "country": "Sweden",
    "lat": 59.4072,
    "lon": 18.0694
  },
  {
    "id": "sweden-drottningholms-golf",
    "name": "Drottningholms Golfklubb",
    "city": "Stockholm",
    "country": "Sweden",
    "lat": 59.3242,
    "lon": 17.8631
  },
  {
    "id": "sweden-ekerum-golf",
    "name": "Ekerum Golf & Resort",
    "city": "Öland",
    "country": "Sweden",
    "lat": 56.7869,
    "lon": 16.5914
  },
  {
    "id": "sweden-eskilstuna-golf",
    "name": "Eskilstuna Golfklubb",
    "city": "Södermanland",
    "country": "Sweden",
    "lat": 59.3667,
    "lon": 16.4689
  },
  {
    "id": "sweden-falkenbergs-golf",
    "name": "Falkenbergs Golfklubb",
    "city": "Halland",
    "country": "Sweden",
    "lat": 56.9114,
    "lon": 12.5531
  },
  {
    "id": "sweden-falsterbo-golf",
    "name": "Falsterbo Golf Club",
    "city": "Skåne",
    "country": "Sweden",
    "lat": 55.3833,
    "lon": 12.8167
  },
  {
    "id": "sweden-flens-golf",
    "name": "Flens Golfklubb",
    "city": "Södermanland",
    "country": "Sweden",
    "lat": 59.0436,
    "lon": 16.5714
  },
  {
    "id": "sweden-forsgardens-golf",
    "name": "Forsgårdens Golfklubb",
    "city": "Halland",
    "country": "Sweden",
    "lat": 57.4897,
    "lon": 12.0839
  },
  {
    "id": "sweden-frosaker-golf",
    "name": "Frösåker Golf & Country Club",
    "city": "Västmanland",
    "country": "Sweden",
    "lat": 59.5492,
    "lon": 16.7328
  },
  {
    "id": "sweden-fagelbro-golf",
    "name": "Fågelbro Golf & Country Club",
    "city": "Stockholm",
    "country": "Sweden",
    "lat": 59.2981,
    "lon": 18.5719
  },
  {
    "id": "sweden-gavle-golf",
    "name": "Gävle Golfklubb",
    "city": "Gävleborg",
    "country": "Sweden",
    "lat": 60.6728,
    "lon": 17.0942
  },
  {
    "id": "sweden-goteborgs-golf",
    "name": "Göteborgs Golfklubb",
    "city": "Västra Götaland",
    "country": "Sweden",
    "lat": 57.6019,
    "lon": 11.9214
  },
  {
    "id": "sweden-halmstad-golf",
    "name": "Halmstad Golfklubb",
    "city": "Halland",
    "country": "Sweden",
    "lat": 56.6623,
    "lon": 12.7493
  },
  {
    "id": "sweden-haninge-golf",
    "name": "Haninge Golfklubb",
    "city": "Stockholm",
    "country": "Sweden",
    "lat": 59.1556,
    "lon": 18.1328
  },
  {
    "id": "sweden-helsingborgs-golf",
    "name": "Helsingborgs Golfklubb",
    "city": "Skåne",
    "country": "Sweden",
    "lat": 56.0911,
    "lon": 12.6592
  },
  {
    "id": "sweden-hook-golf",
    "name": "Hook Golfklubb",
    "city": "Jönköping",
    "country": "Sweden",
    "lat": 57.5192,
    "lon": 14.2811
  },
  {
    "id": "sweden-ingaro-golf",
    "name": "Ingarö Golfklubb",
    "city": "Stockholm",
    "country": "Sweden",
    "lat": 59.2611,
    "lon": 18.4214
  },
  {
    "id": "sweden-jonkopings-golf",
    "name": "Jönköpings Golfklubb",
    "city": "Jönköping",
    "country": "Sweden",
    "lat": 57.7381,
    "lon": 14.1294
  },
  {
    "id": "sweden-kalmar-golf",
    "name": "Kalmar Golfklubb",
    "city": "Kalmar",
    "country": "Sweden",
    "lat": 56.6897,
    "lon": 16.3214
  },
  {
    "id": "sweden-karlstads-golf",
    "name": "Karlstads Golfklubb",
    "city": "Värmland",
    "country": "Sweden",
    "lat": 59.4172,
    "lon": 13.5639
  },
  {
    "id": "sweden-kristianstads-golf",
    "name": "Kristianstads Golfklubb",
    "city": "Skåne",
    "country": "Sweden",
    "lat": 55.9392,
    "lon": 14.3161
  },
  {
    "id": "sweden-kungsbacka-golf",
    "name": "Kungsbacka Golfklubb",
    "city": "Halland",
    "country": "Sweden",
    "lat": 57.5494,
    "lon": 12.0114
  },
  {
    "id": "sweden-landskrona-golf",
    "name": "Landskrona Golfklubb",
    "city": "Skåne",
    "country": "Sweden",
    "lat": 55.8856,
    "lon": 12.8139
  },
  {
    "id": "sweden-ljunghusens-golf",
    "name": "Ljunghusens Golf Club",
    "city": "Skåne",
    "country": "Sweden",
    "lat": 55.3986,
    "lon": 12.9125
  },
  {
    "id": "sweden-lunds-akademiska-golf",
    "name": "Lunds Akademiska Golfklubb",
    "city": "Skåne",
    "country": "Sweden",
    "lat": 55.7231,
    "lon": 13.2725
  },
  {
    "id": "sweden-lysegardens-golf",
    "name": "Lysegårdens Golfklubb",
    "city": "Västra Götaland",
    "country": "Sweden",
    "lat": 57.9431,
    "lon": 12.0394
  },
  {
    "id": "sweden-molndals-golf",
    "name": "Mölndals Golfklubb",
    "city": "Västra Götaland",
    "country": "Sweden",
    "lat": 57.5811,
    "lon": 12.0914
  },
  {
    "id": "sweden-pga-national-golf",
    "name": "PGA Sweden National",
    "city": "Skåne",
    "country": "Sweden",
    "lat": 55.5491,
    "lon": 13.2039
  },
  {
    "id": "sweden-rya-golf",
    "name": "Rya Golfklubb",
    "city": "Skåne",
    "country": "Sweden",
    "lat": 56.0097,
    "lon": 12.6628
  },
  {
    "id": "sweden-saltsjobadens-golf",
    "name": "Saltsjöbadens Golfklubb",
    "city": "Stockholm",
    "country": "Sweden",
    "lat": 59.2728,
    "lon": 18.2614
  },
  {
    "id": "sweden-sand-golf",
    "name": "Sand Golf Club",
    "city": "Jönköping",
    "country": "Sweden",
    "lat": 57.8541,
    "lon": 14.0201
  },
  {
    "id": "sweden-stockholms-golf",
    "name": "Stockholms Golfklubb",
    "city": "Stockholm",
    "country": "Sweden",
    "lat": 59.3894,
    "lon": 18.0211
  },
  {
    "id": "sweden-ullna-golf",
    "name": "Ullna Golf Club",
    "city": "Stockholm",
    "country": "Sweden",
    "lat": 59.4719,
    "lon": 18.1284
  },
  {
    "id": "sweden-upsala-golf",
    "name": "Upsala Golfklubb",
    "city": "Uppsala",
    "country": "Sweden",
    "lat": 59.8392,
    "lon": 17.5211
  },
  {
    "id": "sweden-vasatorps-golf",
    "name": "Vasatorps Golfklubb",
    "city": "Skåne",
    "country": "Sweden",
    "lat": 56.0691,
    "lon": 12.7912
  },
  {
    "id": "sweden-vesterby-links-golf",
    "name": "Vesterby Links (Landeryds GK)",
    "city": "Östergötland",
    "country": "Sweden",
    "lat": 58.2325,
    "lon": 15.7214
  },
  {
    "id": "sweden-visby-golf",
    "name": "Visby Golf Club",
    "city": "Gotland",
    "country": "Sweden",
    "lat": 57.4812,
    "lon": 18.1189
  },
  {
    "id": "norway-aalesund-golf",
    "name": "Aalesund Golfklubb",
    "city": "Møre og Romsdal",
    "country": "Norway",
    "lat": 62.5317,
    "lon": 6.5594
  },
  {
    "id": "norway-asker-golf",
    "name": "Asker Golfklubb",
    "city": "Akershus",
    "country": "Norway",
    "lat": 59.8394,
    "lon": 10.4281
  },
  {
    "id": "norway-askim-golf",
    "name": "Askim Golfklubb",
    "city": "Østfold",
    "country": "Norway",
    "lat": 59.5911,
    "lon": 11.1436
  },
  {
    "id": "norway-atlantis-golf",
    "name": "Atlantis Golf Center",
    "city": "Vestfold",
    "country": "Norway",
    "lat": 59.1106,
    "lon": 10.4328
  },
  {
    "id": "norway-atlungstad-golf",
    "name": "Atlungstad Golf",
    "city": "Innlandet",
    "country": "Norway",
    "lat": 60.7681,
    "lon": 11.0261
  },
  {
    "id": "norway-baerum-golf",
    "name": "Bærum Golfklubb",
    "city": "Akershus",
    "country": "Norway",
    "lat": 59.9536,
    "lon": 10.5144
  },
  {
    "id": "norway-ballerud-golf",
    "name": "Ballerud Golf",
    "city": "Akershus",
    "country": "Norway",
    "lat": 59.9042,
    "lon": 10.5978
  },
  {
    "id": "norway-bergen-golf",
    "name": "Bergen Golfklubb",
    "city": "Vestland",
    "country": "Norway",
    "lat": 60.4394,
    "lon": 5.3325
  },
  {
    "id": "norway-bjaavann-golf",
    "name": "Bjaavann Golfklubb",
    "city": "Agder",
    "country": "Norway",
    "lat": 58.1956,
    "lon": 8.0494
  },
  {
    "id": "norway-bodo-golf",
    "name": "Bodø Golfklubb",
    "city": "Nordland",
    "country": "Norway",
    "lat": 67.3197,
    "lon": 14.4725
  },
  {
    "id": "norway-borre-golf",
    "name": "Borre Golfklubb",
    "city": "Vestfold",
    "country": "Norway",
    "lat": 59.3906,
    "lon": 10.4214
  },
  {
    "id": "norway-drobak-golf",
    "name": "Drøbak Golfklubb",
    "city": "Akershus",
    "country": "Norway",
    "lat": 59.6644,
    "lon": 10.6514
  },
  {
    "id": "norway-egersund-golf",
    "name": "Egersund Golfklubb",
    "city": "Rogaland",
    "country": "Norway",
    "lat": 58.4839,
    "lon": 5.9611
  },
  {
    "id": "norway-elverum-golf",
    "name": "Elverum Golfklubb",
    "city": "Innlandet",
    "country": "Norway",
    "lat": 60.8911,
    "lon": 11.6033
  },
  {
    "id": "norway-evje-golf",
    "name": "Evje Golfpark",
    "city": "Østfold",
    "country": "Norway",
    "lat": 59.3878,
    "lon": 10.6869
  },
  {
    "id": "norway-fana-golf",
    "name": "Fana Golfklubb",
    "city": "Vestland",
    "country": "Norway",
    "lat": 60.3014,
    "lon": 5.3406
  },
  {
    "id": "norway-fjallbacka-golf",
    "name": "Fjällbacka Golfklubb",
    "city": "Innlandet",
    "country": "Norway",
    "lat": 59.0117,
    "lon": 11.5833
  },
  {
    "id": "norway-flam-golf",
    "name": "Flåm Golfklubb",
    "city": "Vestland",
    "country": "Norway",
    "lat": 60.8419,
    "lon": 7.1136
  },
  {
    "id": "norway-gamle-fredrikstad-golf",
    "name": "Gamle Fredrikstad Golfklubb",
    "city": "Østfold",
    "country": "Norway",
    "lat": 59.2086,
    "lon": 10.9631
  },
  {
    "id": "norway-gjersjoen-golf",
    "name": "Gjersjøen Golfklubb",
    "city": "Akershus",
    "country": "Norway",
    "lat": 59.7892,
    "lon": 10.7814
  },
  {
    "id": "norway-gjovik-og-toten-golf",
    "name": "Gjøvik og Toten Golfklubb",
    "city": "Innlandet",
    "country": "Norway",
    "lat": 60.7236,
    "lon": 10.7417
  },
  {
    "id": "norway-grimstad-golf",
    "name": "Grimstad Golfklubb",
    "city": "Agder",
    "country": "Norway",
    "lat": 58.3547,
    "lon": 8.5292
  },
  {
    "id": "norway-gronmo-golf",
    "name": "Grønmo Golfklubb",
    "city": "Oslo",
    "country": "Norway",
    "lat": 59.8669,
    "lon": 10.8436
  },
  {
    "id": "norway-haga-golf",
    "name": "Haga Golfklubb",
    "city": "Oslo",
    "country": "Norway",
    "lat": 59.9483,
    "lon": 10.5694
  },
  {
    "id": "norway-hallingdal-golf",
    "name": "Hallingdal Golfklubb",
    "city": "Buskerud",
    "country": "Norway",
    "lat": 60.5511,
    "lon": 8.9719
  },
  {
    "id": "norway-haugaland-golf",
    "name": "Haugaland Golfklubb",
    "city": "Rogaland",
    "country": "Norway",
    "lat": 59.3769,
    "lon": 5.3897
  },
  {
    "id": "norway-holtsmark-golf",
    "name": "Holtsmark Golf",
    "city": "Buskerud",
    "country": "Norway",
    "lat": 59.7714,
    "lon": 10.2814
  },
  {
    "id": "norway-hvam-golf",
    "name": "Hvam Golfklubb",
    "city": "Akershus",
    "country": "Norway",
    "lat": 60.1064,
    "lon": 11.3917
  },
  {
    "id": "norway-jaeren-golf",
    "name": "Jæren Golfklubb",
    "city": "Rogaland",
    "country": "Norway",
    "lat": 58.7183,
    "lon": 5.6694
  },
  {
    "id": "norway-kjekstad-golf",
    "name": "Kjekstad Golfklubb",
    "city": "Buskerud",
    "country": "Norway",
    "lat": 59.7431,
    "lon": 10.3725
  },
  {
    "id": "norway-kongsberg-golf",
    "name": "Kongsberg Golfklubb",
    "city": "Buskerud",
    "country": "Norway",
    "lat": 59.6547,
    "lon": 9.6892
  },
  {
    "id": "norway-kongsvinger-golf",
    "name": "Kongsvinger Golfklubb",
    "city": "Innlandet",
    "country": "Norway",
    "lat": 60.1514,
    "lon": 12.0628
  },
  {
    "id": "norway-kragero-golf",
    "name": "Kragerø Golf Resort",
    "city": "Telemark",
    "country": "Norway",
    "lat": 58.8911,
    "lon": 9.3622
  },
  {
    "id": "norway-kvinesdal-golf",
    "name": "Kvinesdal Golfklubb",
    "city": "Agder",
    "country": "Norway",
    "lat": 58.3344,
    "lon": 6.9414
  },
  {
    "id": "norway-larvik-golf",
    "name": "Larvik Golfklubb",
    "city": "Vestfold",
    "country": "Norway",
    "lat": 59.0436,
    "lon": 10.0892
  },
  {
    "id": "norway-lofoten-links-golf",
    "name": "Lofoten Links",
    "city": "Nordland",
    "country": "Norway",
    "lat": 68.3292,
    "lon": 14.0931
  },
  {
    "id": "norway-losby-golf",
    "name": "Losby Golfklubb",
    "city": "Akershus",
    "country": "Norway",
    "lat": 59.8894,
    "lon": 10.9856
  },
  {
    "id": "norway-meland-golf",
    "name": "Meland Golfklubb",
    "city": "Vestland",
    "country": "Norway",
    "lat": 60.5494,
    "lon": 5.2131
  },
  {
    "id": "norway-miklagard-golf",
    "name": "Miklagard Golf",
    "city": "Akershus",
    "country": "Norway",
    "lat": 60.0811,
    "lon": 11.1444
  },
  {
    "id": "norway-mjosen-golf",
    "name": "Mjøsen Golfklubb",
    "city": "Innlandet",
    "country": "Norway",
    "lat": 60.9125,
    "lon": 10.8261
  },
  {
    "id": "norway-narvik-golf",
    "name": "Narvik Golfklubb",
    "city": "Nordland",
    "country": "Norway",
    "lat": 68.2561,
    "lon": 17.2431
  },
  {
    "id": "norway-nordhaug-golf",
    "name": "Nordhaug Golfklubb",
    "city": "Akershus",
    "country": "Norway",
    "lat": 59.9511,
    "lon": 10.5592
  },
  {
    "id": "norway-norsjo-golf",
    "name": "Norsjø Golfklubb",
    "city": "Telemark",
    "country": "Norway",
    "lat": 59.3517,
    "lon": 9.2814
  },
  {
    "id": "norway-notteroy-golf",
    "name": "Nøtterøy Golfklubb",
    "city": "Vestfold",
    "country": "Norway",
    "lat": 59.2139,
    "lon": 10.3986
  },
  {
    "id": "norway-oslo-golf",
    "name": "Oslo Golfklubb (Bogstad)",
    "city": "Oslo",
    "country": "Norway",
    "lat": 59.9678,
    "lon": 10.6433
  },
  {
    "id": "norway-preikestolen-golf",
    "name": "Preikestolen Golfklubb",
    "city": "Rogaland",
    "country": "Norway",
    "lat": 58.9917,
    "lon": 6.0894
  },
  {
    "id": "norway-sandnes-golf",
    "name": "Sandnes Golfklubb",
    "city": "Rogaland",
    "country": "Norway",
    "lat": 58.8419,
    "lon": 5.7611
  },
  {
    "id": "norway-sola-golf",
    "name": "Sola Golfklubb",
    "city": "Rogaland",
    "country": "Norway",
    "lat": 58.8872,
    "lon": 5.6417
  },
  {
    "id": "norway-stavanger-golf",
    "name": "Stavanger Golfklubb",
    "city": "Rogaland",
    "country": "Norway",
    "lat": 58.9567,
    "lon": 5.6836
  },
  {
    "id": "norway-trondheim-golf",
    "name": "Trondheim Golfklubb",
    "city": "Trøndelag",
    "country": "Norway",
    "lat": 63.4214,
    "lon": 10.4628
  },
  {
    "id": "norway-tyrifjord-golf",
    "name": "Tyrifjord Golfklubb",
    "city": "Buskerud",
    "country": "Norway",
    "lat": 59.9839,
    "lon": 10.1411
  },
  {
    "id": "norway-valdres-golf",
    "name": "Valdres Golfklubb",
    "city": "Innlandet",
    "country": "Norway",
    "lat": 60.9414,
    "lon": 9.2561
  },
  {
    "id": "denmark-scandinavian-golf",
    "name": "The Scandinavian",
    "city": "Farum",
    "country": "Denmark",
    "lat": 55.8286,
    "lon": 12.3581
  },
  {
    "id": "denmark-great-northern-golf",
    "name": "Great Northern",
    "city": "Kerteminde",
    "country": "Denmark",
    "lat": 55.4594,
    "lon": 10.6486
  },
  {
    "id": "denmark-lubker-golf",
    "name": "Lübker Golf Resort",
    "city": "Nimtofte",
    "country": "Denmark",
    "lat": 56.4311,
    "lon": 10.5731
  },
  {
    "id": "denmark-esbjerg-golf",
    "name": "Esbjerg Golfklub",
    "city": "Esbjerg",
    "country": "Denmark",
    "lat": 55.5392,
    "lon": 8.3517
  },
  {
    "id": "denmark-holstebro-golf",
    "name": "Holstebro Golfklub",
    "city": "Vemb",
    "country": "Denmark",
    "lat": 56.3475,
    "lon": 8.3914
  },
  {
    "id": "denmark-rungsted-golf",
    "name": "Rungsted Golf Klub",
    "city": "Hørsholm",
    "country": "Denmark",
    "lat": 55.8856,
    "lon": 12.5283
  },
  {
    "id": "denmark-royal-copenhagen-golf",
    "name": "Royal Copenhagen Golf Club",
    "city": "Klampenborg",
    "country": "Denmark",
    "lat": 55.7831,
    "lon": 12.5714
  },
  {
    "id": "denmark-simons-golf",
    "name": "Simon's Golf Club",
    "city": "Kvistgård",
    "country": "Denmark",
    "lat": 55.9925,
    "lon": 12.4839
  },
  {
    "id": "denmark-nordvestjysk-golf",
    "name": "Nordvestjysk Golfklub",
    "city": "Thisted",
    "country": "Denmark",
    "lat": 56.9856,
    "lon": 8.5217
  },
  {
    "id": "denmark-aarhus-golf",
    "name": "Aarhus Golf Club",
    "city": "Højbjerg",
    "country": "Denmark",
    "lat": 56.0956,
    "lon": 10.2189
  },
  {
    "id": "denmark-lyngbygaard-golf",
    "name": "Lyngbygaard Golf",
    "city": "Brabrand",
    "country": "Denmark",
    "lat": 56.1611,
    "lon": 10.0514
  },
  {
    "id": "denmark-silkeborg-ry-golf",
    "name": "Silkeborg Ry Golfklub",
    "city": "Silkeborg",
    "country": "Denmark",
    "lat": 56.1261,
    "lon": 9.5894
  },
  {
    "id": "denmark-stensballegaard-golf",
    "name": "Stensballegaard Golfklub",
    "city": "Horsens",
    "country": "Denmark",
    "lat": 55.8711,
    "lon": 9.9142
  },
  {
    "id": "denmark-trehoje-golf",
    "name": "Trehøje Golfklub",
    "city": "Vildbjerg",
    "country": "Denmark",
    "lat": 56.1836,
    "lon": 8.7114
  },
  {
    "id": "denmark-himmerland-golf",
    "name": "HimmerLand",
    "city": "Gatten",
    "country": "Denmark",
    "lat": 56.8456,
    "lon": 9.4211
  },
  {
    "id": "denmark-romo-golf",
    "name": "Rømø Golf Links",
    "city": "Rømø Island",
    "country": "Denmark",
    "lat": 55.0894,
    "lon": 8.5414
  },
  {
    "id": "denmark-koge-golf",
    "name": "Køge Golf Klub",
    "city": "Køge",
    "country": "Denmark",
    "lat": 55.4394,
    "lon": 12.1811
  },
  {
    "id": "denmark-mariagerfjord-golf",
    "name": "Mariagerfjord Golfklub",
    "city": "Hadsund",
    "country": "Denmark",
    "lat": 56.7056,
    "lon": 10.0325
  },
  {
    "id": "denmark-vejle-golf",
    "name": "Vejle Golf Club",
    "city": "Vejle",
    "country": "Denmark",
    "lat": 55.7231,
    "lon": 9.5986
  },
  {
    "id": "denmark-odense-golf",
    "name": "Odense Golfklub",
    "city": "Odense",
    "country": "Denmark",
    "lat": 55.3614,
    "lon": 10.4394
  },
  {
    "id": "denmark-skanderborg-golf",
    "name": "Skanderborg Golf Klub",
    "city": "Skanderborg",
    "country": "Denmark",
    "lat": 56.0592,
    "lon": 9.9411
  },
  {
    "id": "denmark-hvide-klit-golf",
    "name": "Hvide Klit Golfklub",
    "city": "Skagen Area",
    "country": "Denmark",
    "lat": 57.6592,
    "lon": 10.4131
  },
  {
    "id": "denmark-bornholms-golf",
    "name": "Bornholms Golf Klub",
    "city": "Rønne (Bornholm)",
    "country": "Denmark",
    "lat": 55.1214,
    "lon": 14.7317
  },
  {
    "id": "denmark-asserbo-golf",
    "name": "Asserbo Golf Club",
    "city": "Frederiksværk",
    "country": "Denmark",
    "lat": 56.0114,
    "lon": 12.0628
  },
  {
    "id": "denmark-royal-golf",
    "name": "Royal Golf Club",
    "city": "Copenhagen",
    "country": "Denmark",
    "lat": 55.6367,
    "lon": 12.5833
  },
  {
    "id": "denmark-odsherred-golf",
    "name": "Odsherred Golfklub",
    "city": "Højby",
    "country": "Denmark",
    "lat": 55.9083,
    "lon": 11.6033
  },
  {
    "id": "denmark-falster-golf",
    "name": "Falster Golfklub",
    "city": "Eskilstrup",
    "country": "Denmark",
    "lat": 54.8592,
    "lon": 11.9214
  },
  {
    "id": "denmark-breinholtgard-golf",
    "name": "Breinholtgård Golf Klub",
    "city": "Esbjerg V",
    "country": "Denmark",
    "lat": 55.5161,
    "lon": 8.4114
  },
  {
    "id": "denmark-aabenraa-golf",
    "name": "Aabenraa Golf Club",
    "city": "Aabenraa",
    "country": "Denmark",
    "lat": 55.0811,
    "lon": 9.4444
  },
  {
    "id": "denmark-aabybro-golf",
    "name": "Aabybro Golf Club",
    "city": "Aabybro",
    "country": "Denmark",
    "lat": 57.1514,
    "lon": 9.7214
  },
  {
    "id": "denmark-aalborg-golf",
    "name": "Aalborg Golf Klub",
    "city": "Aalborg",
    "country": "Denmark",
    "lat": 57.0197,
    "lon": 9.8114
  },
  {
    "id": "denmark-aarhus-aadal-golf",
    "name": "Aarhus Aadal Golf Club",
    "city": "Harlev",
    "country": "Denmark",
    "lat": 56.1436,
    "lon": 10.0097
  },
  {
    "id": "denmark-aars-golf",
    "name": "Aars Golf Klub",
    "city": "Aars",
    "country": "Denmark",
    "lat": 56.8114,
    "lon": 9.4892
  },
  {
    "id": "denmark-aaskov-golf",
    "name": "Aaskov Golfklub",
    "city": "Sdr. Felding",
    "country": "Denmark",
    "lat": 55.9922,
    "lon": 8.7892
  },
  {
    "id": "denmark-aero-golf",
    "name": "Ærø Golf Klub",
    "city": "Ærø Island",
    "country": "Denmark",
    "lat": 54.9392,
    "lon": 10.3114
  },
  {
    "id": "denmark-albertslund-golf",
    "name": "Albertslund Golfklub",
    "city": "Albertslund",
    "country": "Denmark",
    "lat": 55.6725,
    "lon": 12.3325
  },
  {
    "id": "denmark-benniksgaard-golf",
    "name": "Benniksgaard Golf Klub",
    "city": "Gråsten",
    "country": "Denmark",
    "lat": 54.8911,
    "lon": 9.5144
  },
  {
    "id": "denmark-birkemose-golf",
    "name": "Birkemose Golf Club",
    "city": "Kolding",
    "country": "Denmark",
    "lat": 55.5317,
    "lon": 9.5097
  },
  {
    "id": "denmark-blavandshuk-golf",
    "name": "Blåvandshuk Golfklub",
    "city": "Blåvand",
    "country": "Denmark",
    "lat": 55.5614,
    "lon": 8.1631
  },
  {
    "id": "denmark-blokhus-golf",
    "name": "Blokhus Golfcenter",
    "city": "Blokhus",
    "country": "Denmark",
    "lat": 57.2431,
    "lon": 9.6111
  },
  {
    "id": "denmark-brande-golf",
    "name": "Brande Golfklub",
    "city": "Brande",
    "country": "Denmark",
    "lat": 55.9414,
    "lon": 9.1106
  },
  {
    "id": "denmark-brondby-golf",
    "name": "Brøndby Golfklub",
    "city": "Brøndby",
    "country": "Denmark",
    "lat": 55.6431,
    "lon": 12.4111
  },
  {
    "id": "denmark-bronderslev-golf",
    "name": "Brønderslev Golfklub",
    "city": "Brønderslev",
    "country": "Denmark",
    "lat": 57.2831,
    "lon": 9.9536
  },
  {
    "id": "denmark-maribo-so-golf",
    "name": "Maribo Sø Golfklub",
    "city": "Maribo",
    "country": "Denmark",
    "lat": 54.7611,
    "lon": 11.5144
  },
  {
    "id": "denmark-sindal-golf",
    "name": "Sindal Golf Klub",
    "city": "Sindal",
    "country": "Denmark",
    "lat": 57.4914,
    "lon": 10.2086
  },
  {
    "id": "denmark-tange-so-golf",
    "name": "Tange Sø Golfklub",
    "city": "Bjerringbro",
    "country": "Denmark",
    "lat": 56.3547,
    "lon": 9.6019
  },
  {
    "id": "denmark-soro-golf",
    "name": "Sorø Golfklub",
    "city": "Sorø",
    "country": "Denmark",
    "lat": 55.4628,
    "lon": 11.5408
  },
  {
    "id": "denmark-randers-golf",
    "name": "Randers Golf Klub",
    "city": "Randers",
    "country": "Denmark",
    "lat": 56.4839,
    "lon": 10.0261
  },
  {
    "id": "denmark-ebeltoft-golf",
    "name": "Ebeltoft Golf Club",
    "city": "Ebeltoft",
    "country": "Denmark",
    "lat": 56.1956,
    "lon": 10.6869
  },
  {
    "id": "denmark-fano-golf",
    "name": "Fanø Vesterhavsbad Golfklub",
    "city": "Fanø Island",
    "country": "Denmark",
    "lat": 55.4444,
    "lon": 8.3622
  },
  {
    "id": "denmark-fredericia-golf",
    "name": "Fredericia Golf Club",
    "city": "Fredericia",
    "country": "Denmark",
    "lat": 55.5833,
    "lon": 9.7417
  },
  {
    "id": "denmark-fureso-golf",
    "name": "Furesø Golfklub",
    "city": "Birkerød",
    "country": "Denmark",
    "lat": 55.8394,
    "lon": 12.4328
  },
  {
    "id": "denmark-gilleleje-golf",
    "name": "Gilleleje Golfklub",
    "city": "Gilleleje",
    "country": "Denmark",
    "lat": 56.1106,
    "lon": 12.2814
  },
  {
    "id": "denmark-greve-golf",
    "name": "Greve Golfklub",
    "city": "Karlslunde",
    "country": "Denmark",
    "lat": 55.5511,
    "lon": 12.1836
  },
  {
    "id": "denmark-haderslev-golf",
    "name": "Haderslev Golfklub",
    "city": "Haderslev",
    "country": "Denmark",
    "lat": 55.2561,
    "lon": 9.4725
  },
  {
    "id": "denmark-hals-golf",
    "name": "Hals Golf Klub",
    "city": "Hals",
    "country": "Denmark",
    "lat": 56.9917,
    "lon": 10.3131
  },
  {
    "id": "denmark-hammel-golf",
    "name": "Hammel Golf Klub",
    "city": "Hammel",
    "country": "Denmark",
    "lat": 56.2546,
    "lon": 9.8436
  },
  {
    "id": "denmark-harre-vig-golf",
    "name": "Harre Vig Golfklub",
    "city": "Roslev",
    "country": "Denmark",
    "lat": 56.7164,
    "lon": 8.9719
  },
  {
    "id": "denmark-hedeland-golf",
    "name": "Hedeland Golfklub",
    "city": "Hedehusene",
    "country": "Denmark",
    "lat": 55.6339,
    "lon": 12.1436
  },
  {
    "id": "denmark-helsingor-golf",
    "name": "Helsingør Golf Club",
    "city": "Helsingør",
    "country": "Denmark",
    "lat": 56.0394,
    "lon": 12.5833
  },
  {
    "id": "denmark-herning-golf",
    "name": "Herning Golf Klub",
    "city": "Herning",
    "country": "Denmark",
    "lat": 56.1431,
    "lon": 8.9856
  },
  {
    "id": "denmark-hillerod-golf",
    "name": "Hillerød Golf Klub",
    "city": "Hillerød",
    "country": "Denmark",
    "lat": 55.9392,
    "lon": 12.2614
  },
  {
    "id": "denmark-hjorring-golf",
    "name": "Hjørring Golfklub",
    "city": "Hjørring",
    "country": "Denmark",
    "lat": 57.4725,
    "lon": 10.0114
  },
  {
    "id": "denmark-holluf-park-golf",
    "name": "Holluf Park (Odense Eventyr)",
    "city": "Odense",
    "country": "Denmark",
    "lat": 55.3667,
    "lon": 10.4628
  },
  {
    "id": "denmark-holbaek-golf",
    "name": "Holbæk Golfklub",
    "city": "Holbæk",
    "country": "Denmark",
    "lat": 55.7236,
    "lon": 11.6892
  },
  {
    "id": "denmark-hornbaek-golf",
    "name": "Hornbæk Golfklub",
    "city": "Hornbæk",
    "country": "Denmark",
    "lat": 56.0691,
    "lon": 12.4328
  },
  {
    "id": "denmark-horsens-golf",
    "name": "Horsens Golfklub",
    "city": "Horsens",
    "country": "Denmark",
    "lat": 55.8597,
    "lon": 9.8139
  },
  {
    "id": "denmark-ikast-golf",
    "name": "Ikast Golf Klub",
    "city": "Ikast",
    "country": "Denmark",
    "lat": 56.1556,
    "lon": 9.1411
  },
  {
    "id": "denmark-ishoj-golf",
    "name": "Ishøj Golf Center",
    "city": "Ishøj",
    "country": "Denmark",
    "lat": 55.6194,
    "lon": 12.2814
  },
  {
    "id": "denmark-jelling-golf",
    "name": "Jelling Golfklub",
    "city": "Jelling",
    "country": "Denmark",
    "lat": 55.7514,
    "lon": 9.4214
  },
  {
    "id": "denmark-juelsminde-golf",
    "name": "Juelsminde Golfklub",
    "city": "Juelsminde",
    "country": "Denmark",
    "lat": 55.7173,
    "lon": 10.0004
  },
  {
    "id": "denmark-kalundborg-golf",
    "name": "Kalundborg Golfklub",
    "city": "Kalundborg",
    "country": "Denmark",
    "lat": 55.6972,
    "lon": 11.0839
  },
  {
    "id": "denmark-karloby-golf",
    "name": "Karloby Golf Klub",
    "city": "Middelfart",
    "country": "Denmark",
    "lat": 55.5039,
    "lon": 9.8219
  },
  {
    "id": "denmark-kolding-golf",
    "name": "Kolding Golf Club",
    "city": "Kolding",
    "country": "Denmark",
    "lat": 55.5113,
    "lon": 9.4842
  },
  {
    "id": "denmark-korsor-golf",
    "name": "Korsør Golf Klub",
    "city": "Korsør",
    "country": "Denmark",
    "lat": 55.3344,
    "lon": 11.1444
  },
  {
    "id": "denmark-langeso-golf",
    "name": "Langesø Golf",
    "city": "Morud",
    "country": "Denmark",
    "lat": 55.4314,
    "lon": 10.2039
  },
  {
    "id": "denmark-lemvig-golf",
    "name": "Lemvig Golfklub",
    "city": "Lemvig",
    "country": "Denmark",
    "lat": 56.5521,
    "lon": 8.2811
  },
  {
    "id": "denmark-laeso-golf",
    "name": "Læsø Seaside Golf Klub",
    "city": "Læsø Island",
    "country": "Denmark",
    "lat": 57.3197,
    "lon": 11.1294
  },
  {
    "id": "denmark-midtsjaellands-golf",
    "name": "Midtsjællands Golfklub",
    "city": "Kvanløse",
    "country": "Denmark",
    "lat": 55.6575,
    "lon": 11.6596
  },
  {
    "id": "denmark-moen-golf",
    "name": "Møen Golfklub",
    "city": "Møn Island",
    "country": "Denmark",
    "lat": 54.9811,
    "lon": 12.2431
  },
  {
    "id": "denmark-morso-golf",
    "name": "Morsø Golfklub",
    "city": "Nykøbing Mors",
    "country": "Denmark",
    "lat": 56.7955,
    "lon": 8.8493
  },
  {
    "id": "denmark-naestved-golf",
    "name": "Næstved Golfklub",
    "city": "Næstved",
    "country": "Denmark",
    "lat": 55.2139,
    "lon": 11.7214
  },
  {
    "id": "denmark-nordborg-golf",
    "name": "Nordborg Golfklub",
    "city": "Nordborg",
    "country": "Denmark",
    "lat": 55.0436,
    "lon": 9.7431
  },
  {
    "id": "denmark-nyborg-golf",
    "name": "Nyborg Golfklub",
    "city": "Nyborg",
    "country": "Denmark",
    "lat": 55.3126,
    "lon": 10.7794
  },
  {
    "id": "denmark-passebaekgaard-golf",
    "name": "Passebækgaard Golf",
    "city": "Dronningmølle",
    "country": "Denmark",
    "lat": 56.0911,
    "lon": 12.3533
  },
  {
    "id": "denmark-ribe-golf",
    "name": "Ribe Golfklub",
    "city": "Ribe",
    "country": "Denmark",
    "lat": 55.3271,
    "lon": 8.8144
  },
  {
    "id": "denmark-ringsted-golf",
    "name": "Ringsted Golfklub",
    "city": "Ringsted",
    "country": "Denmark",
    "lat": 55.4514,
    "lon": 11.7814
  },
  {
    "id": "denmark-roskilde-golf",
    "name": "Roskilde Golf Klub",
    "city": "Roskilde",
    "country": "Denmark",
    "lat": 55.6419,
    "lon": 12.0628
  },
  {
    "id": "denmark-samso-golf",
    "name": "Samsø Golfklub",
    "city": "Samsø Island",
    "country": "Denmark",
    "lat": 55.8894,
    "lon": 10.6111
  },
  {
    "id": "denmark-sebber-kloster-golf",
    "name": "Sebber Kloster Golfklub",
    "city": "Nibe",
    "country": "Denmark",
    "lat": 56.9511,
    "lon": 9.5261
  },
  {
    "id": "denmark-skagen-golf",
    "name": "Skagen Golfklub (Pay & Play)",
    "city": "Skagen",
    "country": "Denmark",
    "lat": 57.7231,
    "lon": 10.5592
  },
  {
    "id": "denmark-skovbo-golf",
    "name": "Skovbo Golfklub",
    "city": "Borup",
    "country": "Denmark",
    "lat": 55.4952,
    "lon": 11.9691
  },
  {
    "id": "denmark-sollerod-golf",
    "name": "Søllerød Golfklub",
    "city": "Holte",
    "country": "Denmark",
    "lat": 55.8214,
    "lon": 12.5097
  },
  {
    "id": "denmark-sonderjyllands-golf",
    "name": "Sønderjyllands Golfklub",
    "city": "Tinglev",
    "country": "Denmark",
    "lat": 54.9431,
    "lon": 9.3161
  },
  {
    "id": "denmark-sydsjaellands-golf",
    "name": "Sydsjællands Golfklub",
    "city": "Mogenstrup",
    "country": "Denmark",
    "lat": 55.1811,
    "lon": 11.8436
  },
  {
    "id": "denmark-trelleborg-golf",
    "name": "Trelleborg Golfklub",
    "city": "Slagelse",
    "country": "Denmark",
    "lat": 55.3986,
    "lon": 11.3171
  },
  {
    "id": "denmark-vaerlose-golf",
    "name": "Værløse Golfklub",
    "city": "Værløse",
    "country": "Denmark",
    "lat": 55.7725,
    "lon": 12.3917
  }
]
